[
  {
    "id": "v-0001",
    "name": "Казино „Голден Палас“ (пример)",
    "kind": "casino",
    "operator": "Пример Гејминг ДООЕЛ Скопје",
    "licenseNo": "УП 11-111/2024",
    "lat": 41.9965,
    "lng": 21.431,
    "municipality": "Центар",
    "address": "ул. Пример бр. 1, Скопје",
    "source": "Тест податоци",
    "verified": false
  },
  {
    "id": "v-0002",
    "name": "Автомат клуб „Џекпот“ (пример)",
    "kind": "automat_club",
    "operator": "Пример Слотс ДОО Скопје",
    "licenseNo": "УП 11-222/2024",
    "lat": 42.003,
    "lng": 21.44,
    "municipality": "Центар",
    "address": "ул. Пример бр. 2, Скопје",
    "source": "Тест податоци",
    "verified": false
  },
  {
    "id": "v-0003",
    "name": "Обложувалница „Спорт Бет“ (пример)",
    "kind": "betting_shop",
    "operator": "Пример Бет ДООЕЛ Скопје",
    "licenseNo": "УП 11-333/2024",
    "lat": 41.989,
    "lng": 21.459,
    "municipality": "Аеродром",
    "address": "ул. Пример бр. 3, Скопје",
    "source": "Тест податоци",
    "verified": false
  },
  {
    "id": "v-0004",
    "name": "Обложувалница „Мега Тип“ (пример)",
    "kind": "betting_shop",
    "operator": "Пример Тип ДОО Скопје",
    "licenseNo": "УП 11-444/2024",
    "lat": 41.9745,
    "lng": 21.431,
    "municipality": "Кисела Вода",
    "address": "ул. Пример бр. 4, Скопје",
    "source": "Тест податоци",
    "verified": false
  },
  {
    "id": "v-0005",
    "name": "Казино „Ројал“ (пример)",
    "kind": "casino",
    "operator": "Пример Ројал ДООЕЛ Скопје",
    "licenseNo": "УП 11-555/2024",
    "lat": 42.011,
    "lng": 21.4255,
    "municipality": "Чаир",
    "address": "ул. Пример бр. 5, Скопје",
    "source": "Тест податоци",
    "verified": false
  },
  {
    "id": "v-0006",
    "name": "Е-игри „Лаки Спин“ (пример)",
    "kind": "electronic_games",
    "operator": "Пример Дигитал ДОО Скопје",
    "licenseNo": "УП 11-666/2024",
    "lat": 42.0095,
    "lng": 21.3935,
    "municipality": "Карпош",
    "address": "ул. Пример бр. 6, Скопје",
    "source": "Тест податоци",
    "verified": false
  }
]
